County,lat,lon,Maize_Price,Fuel_Price,Population,Base_Risk
Nairobi,-1.2921,36.8219,230,215,4397073,75
Mombasa,-4.0435,39.6682,210,212,1208333,60
Kisumu,-0.0917,34.7680,225,215,610082,70
Kakamega,0.2827,34.7519,190,215,1867579,45
Eldoret,0.5143,35.2698,180,213,475716,40
Nakuru,-0.3031,36.0800,200,214,570674,55
Turkana,3.1167,35.6000,250,220,926976,80
Nyeri,-0.4167,36.9500,195,215,759164,35
Garissa,-0.4532,39.6460,240,218,841353,65
